Satellite-KickSat2-To-Facility-Facility1 Access.txt

                                                                               1 Aug 2018 13:00:48
Approved for Personal Home Use Only
Satellite-KickSat2-To-Facility-Facility1:  Access Summary Report


KickSat2-To-Facility1
---------------------
                  Access        Start Time (UTCG)           Stop Time (UTCG)        Duration (sec)
                  ------    ------------------------    ------------------------    --------------
                       1     2 Dec 2018 05:59:04.083     2 Dec 2018 06:03:11.335           247.253
                       2     2 Dec 2018 12:28:06.809     2 Dec 2018 12:32:20.354           253.545
                       3     3 Dec 2018 05:05:09.848     3 Dec 2018 05:09:20.089           250.241
                       4     3 Dec 2018 11:34:32.476     3 Dec 2018 11:38:00.778           208.302
                       5     3 Dec 2018 13:11:58.494     3 Dec 2018 13:13:00.386            61.892
                       6     4 Dec 2018 04:12:00.309     4 Dec 2018 04:14:55.131           174.822
                       7     4 Dec 2018 05:48:24.793     4 Dec 2018 05:51:11.717           166.924
                       8     4 Dec 2018 10:41:42.166     4 Dec 2018 10:42:45.667            63.500
                       9     4 Dec 2018 12:16:49.191     4 Dec 2018 12:20:39.803           230.612
                      10     5 Dec 2018 04:53:48.377     5 Dec 2018 04:57:49.169           240.792
                      11     5 Dec 2018 11:22:46.350     5 Dec 2018 11:27:02.050           255.700
                      12     6 Dec 2018 03:59:47.970     6 Dec 2018 04:04:02.088           254.118
                      13     6 Dec 2018 10:29:07.892     6 Dec 2018 10:32:48.648           220.755
                      14     7 Dec 2018 03:06:27.956     7 Dec 2018 03:09:45.690           197.734
                      15     7 Dec 2018 04:43:18.574     7 Dec 2018 04:45:42.488           143.914
                      16     7 Dec 2018 09:36:01.839     7 Dec 2018 09:37:51.323           109.483
                      17     7 Dec 2018 11:11:35.169     7 Dec 2018 11:15:12.745           217.576
                      18     8 Dec 2018 03:48:33.745     8 Dec 2018 03:52:26.296           232.551
                      19     8 Dec 2018 10:17:26.613     8 Dec 2018 10:21:42.668           256.055
                      20     9 Dec 2018 02:54:27.290     9 Dec 2018 02:58:43.238           255.948
                      21     9 Dec 2018 09:23:44.151     9 Dec 2018 09:27:35.304           231.154
                      22    10 Dec 2018 02:00:58.438    10 Dec 2018 02:04:33.745           215.307
                      23    10 Dec 2018 03:38:15.643    10 Dec 2018 03:40:10.333           114.691
                      24    10 Dec 2018 08:30:29.071    10 Dec 2018 08:32:49.061           139.991
                      25    10 Dec 2018 10:06:22.914    10 Dec 2018 10:09:43.592           200.679
                      26    11 Dec 2018 02:43:20.231    11 Dec 2018 02:47:02.674           222.443
                      27    11 Dec 2018 09:12:07.642    11 Dec 2018 09:16:22.160           254.517
                      28    12 Dec 2018 01:49:07.741    12 Dec 2018 01:53:23.614           255.873
                      29    12 Dec 2018 08:18:21.170    12 Dec 2018 08:22:20.838           239.668
                      30    13 Dec 2018 00:55:31.095    13 Dec 2018 00:59:19.962           228.867
                      31    13 Dec 2018 02:33:19.415    13 Dec 2018 02:34:31.842            72.426
                      32    13 Dec 2018 07:24:59.496    13 Dec 2018 07:27:43.242           163.746
                      33    13 Dec 2018 09:01:13.034    13 Dec 2018 09:04:11.727           178.694
                      34    14 Dec 2018 00:03:18.814    14 Dec 2018 00:04:02.638            43.824
                      35    14 Dec 2018 01:38:07.913    14 Dec 2018 01:41:38.225           210.312
                      36    14 Dec 2018 08:06:49.506    14 Dec 2018 08:11:00.470           250.964
                      37    15 Dec 2018 00:43:49.279    15 Dec 2018 00:48:03.262           253.983
                      38    15 Dec 2018 07:12:58.904    15 Dec 2018 07:17:05.295           246.391
                      39    15 Dec 2018 23:50:05.537    15 Dec 2018 23:54:04.735           239.197
                      40    16 Dec 2018 06:19:31.871    16 Dec 2018 06:22:35.112           183.242
                      41    16 Dec 2018 07:56:06.721    16 Dec 2018 07:58:35.967           149.246
                      42    16 Dec 2018 22:57:20.212    16 Dec 2018 22:59:18.602           118.390
                      43    17 Dec 2018 00:32:56.905    17 Dec 2018 00:36:12.834           195.929
                      44    17 Dec 2018 07:01:32.297    17 Dec 2018 07:05:37.504           245.208
                      45    17 Dec 2018 23:38:31.879    17 Dec 2018 23:42:42.207           250.328
                      46    18 Dec 2018 06:07:37.329    18 Dec 2018 06:11:48.693           251.364
                      47    18 Dec 2018 22:44:41.517    18 Dec 2018 22:48:48.316           246.800
                      48    19 Dec 2018 05:14:05.634    19 Dec 2018 05:17:25.232           199.598
                      49    19 Dec 2018 06:51:07.114    19 Dec 2018 06:52:53.178           106.065
                      50    19 Dec 2018 21:51:39.648    19 Dec 2018 21:54:16.845           157.197
                      51    19 Dec 2018 23:27:47.408    19 Dec 2018 23:30:46.293           178.885
                      52    20 Dec 2018 05:56:16.144    20 Dec 2018 06:00:13.134           236.990
                      53    20 Dec 2018 22:33:15.530    20 Dec 2018 22:37:20.470           244.940
                      54    21 Dec 2018 05:02:16.444    21 Dec 2018 05:06:31.039           254.594
                      55    21 Dec 2018 21:39:18.865    21 Dec 2018 21:43:30.875           252.010
                      56    22 Dec 2018 04:08:40.482    22 Dec 2018 04:12:13.892           213.411
                      57    22 Dec 2018 20:46:04.990    22 Dec 2018 20:49:09.513           184.523
                      58    22 Dec 2018 22:22:39.770    22 Dec 2018 22:25:18.268           158.498
                      59    23 Dec 2018 03:15:42.555    23 Dec 2018 03:17:07.201            84.646
                      60    23 Dec 2018 04:51:01.236    23 Dec 2018 04:54:47.175           225.939
                      61    23 Dec 2018 21:28:00.242    23 Dec 2018 21:31:58.034           237.792
                      62    24 Dec 2018 03:56:56.265    24 Dec 2018 04:01:12.323           256.058
                      63    24 Dec 2018 20:33:57.466    24 Dec 2018 20:38:12.530           255.064
                      64    25 Dec 2018 03:03:16.244    25 Dec 2018 03:07:01.279           225.035
                      65    25 Dec 2018 19:40:33.854    25 Dec 2018 19:43:58.988           205.135
                      66    25 Dec 2018 21:17:34.653    25 Dec 2018 21:19:48.088           133.435
                      67    26 Dec 2018 02:10:06.252    26 Dec 2018 02:12:08.695           122.443
                      68    26 Dec 2018 03:45:47.850    26 Dec 2018 03:49:19.359           211.508
                      69    26 Dec 2018 20:22:46.045    26 Dec 2018 20:26:34.879           228.834
                      70    27 Dec 2018 02:51:36.823    27 Dec 2018 02:55:52.509           255.686
                      71    27 Dec 2018 19:28:37.238    27 Dec 2018 19:32:53.377           256.140
                      72    28 Dec 2018 01:57:52.808    28 Dec 2018 02:01:47.495           234.687
                      73    28 Dec 2018 18:35:05.246    28 Dec 2018 18:38:46.266           221.020
                      74    28 Dec 2018 20:12:33.632    28 Dec 2018 20:14:14.167           100.536
                      75    29 Dec 2018 01:04:34.962    29 Dec 2018 01:07:04.819           149.857
                      76    29 Dec 2018 02:40:36.430    29 Dec 2018 02:43:49.242           192.812
                      77    29 Dec 2018 19:17:32.983    29 Dec 2018 19:21:10.950           217.967
                      78    30 Dec 2018 01:46:18.169    30 Dec 2018 01:50:31.554           253.385
                      79    30 Dec 2018 18:23:18.118    30 Dec 2018 18:27:33.463           255.345
                      80    31 Dec 2018 00:52:30.110    31 Dec 2018 00:56:32.605           242.496
                      81    31 Dec 2018 17:29:38.638    31 Dec 2018 17:33:31.882           233.244
                      82    31 Dec 2018 19:07:43.800    31 Dec 2018 19:08:29.418            45.618
                      83    31 Dec 2018 23:59:06.241     1 Jan 2019 00:01:58.008           171.767
                      84     1 Jan 2019 01:35:27.745     1 Jan 2019 01:38:16.057           168.312
                      85     1 Jan 2019 16:37:08.856     1 Jan 2019 16:38:31.342            82.485
                      86     1 Jan 2019 18:12:21.157     1 Jan 2019 18:15:46.153           204.996
                      87     2 Jan 2019 00:41:00.383     2 Jan 2019 00:45:09.378           248.996
                      88     2 Jan 2019 17:18:00.073     2 Jan 2019 17:22:12.840           252.768
                      89     2 Jan 2019 23:47:08.114     2 Jan 2019 23:51:16.650           248.536
                      90     3 Jan 2019 16:24:13.705     3 Jan 2019 16:28:16.166           242.461
                      91     3 Jan 2019 22:53:39.204     3 Jan 2019 22:56:49.151           189.946
                      92     4 Jan 2019 00:30:23.457     4 Jan 2019 00:32:38.146           134.689
                      93     4 Jan 2019 15:31:21.118     4 Jan 2019 15:33:36.562           135.444
                      94     4 Jan 2019 17:07:10.710     4 Jan 2019 17:10:20.345           189.635
                      95     4 Jan 2019 23:35:43.568     4 Jan 2019 23:39:45.880           242.312
                      96     5 Jan 2019 16:12:43.082     5 Jan 2019 16:16:51.522           248.440
                      97     5 Jan 2019 22:41:46.807     5 Jan 2019 22:45:59.640           252.833
                      98     6 Jan 2019 15:18:50.236     6 Jan 2019 15:22:59.333           249.097
                      99     6 Jan 2019 21:48:13.412     6 Jan 2019 21:51:38.677           205.264
                     100     6 Jan 2019 23:25:29.014     6 Jan 2019 23:26:50.072            81.059
                     101     7 Jan 2019 14:25:43.328     7 Jan 2019 14:28:32.160           168.832
                     102     7 Jan 2019 16:02:01.878     7 Jan 2019 16:04:53.284           171.406
                     103     7 Jan 2019 20:55:29.443     7 Jan 2019 20:56:16.775            47.332
                     104     7 Jan 2019 22:30:27.876     7 Jan 2019 22:34:20.913           233.037
                     105     8 Jan 2019 15:07:27.143     8 Jan 2019 15:11:29.512           242.369
                     106     8 Jan 2019 21:36:26.195     8 Jan 2019 21:40:41.571           255.377
                     107     9 Jan 2019 14:13:28.083     9 Jan 2019 14:17:41.523           253.440
                     108     9 Jan 2019 20:42:48.628     9 Jan 2019 20:46:26.828           218.200
                     109    10 Jan 2019 13:20:10.212    10 Jan 2019 13:23:23.411           193.199
                     110    10 Jan 2019 14:56:55.106    10 Jan 2019 14:59:24.532           149.426
                     111    10 Jan 2019 19:49:45.154    10 Jan 2019 19:51:26.472           101.319
                     112    10 Jan 2019 21:25:13.523    10 Jan 2019 21:28:54.270           220.747
                     113    11 Jan 2019 14:02:12.270    11 Jan 2019 14:06:06.801           234.531
                     114    11 Jan 2019 20:31:06.295    11 Jan 2019 20:35:22.432           256.136
                     115    12 Jan 2019 13:08:07.145    12 Jan 2019 13:12:22.858           255.712
                     116    12 Jan 2019 19:37:24.708    12 Jan 2019 19:41:13.745           229.037
                     117    13 Jan 2019 12:14:40.139    13 Jan 2019 12:18:11.943           211.804
                     118    13 Jan 2019 13:51:51.288    13 Jan 2019 13:53:53.186           121.898
                     119    13 Jan 2019 18:44:11.331    13 Jan 2019 18:46:25.346           134.014
                     120    13 Jan 2019 20:20:00.838    13 Jan 2019 20:23:25.616           204.778
                     121    14 Jan 2019 12:56:58.502    14 Jan 2019 13:00:43.350           224.848
                     122    14 Jan 2019 19:25:47.151    14 Jan 2019 19:30:02.173           255.022
                     123    15 Jan 2019 12:02:47.350    15 Jan 2019 12:07:03.399           256.049
                     124    15 Jan 2019 18:32:01.563    15 Jan 2019 18:35:59.520           237.958
                     125    16 Jan 2019 11:09:12.356    16 Jan 2019 11:12:58.524           226.168
                     126    16 Jan 2019 12:46:52.922    16 Jan 2019 12:48:16.750            83.828
                     127    16 Jan 2019 17:38:41.196    16 Jan 2019 17:41:20.163           158.967
                     128    16 Jan 2019 19:14:50.366    16 Jan 2019 19:17:54.415           184.049
                     129    17 Jan 2019 11:51:45.906    17 Jan 2019 11:55:19.093           213.187
                     130    17 Jan 2019 18:20:28.823    17 Jan 2019 18:24:40.749           251.926
                     131    18 Jan 2019 10:57:28.649    18 Jan 2019 11:01:43.202           254.553
                     132    18 Jan 2019 17:26:39.139    18 Jan 2019 17:30:44.209           245.070
                     133    19 Jan 2019 10:03:46.427    19 Jan 2019 10:07:43.590           237.163
                     134    19 Jan 2019 16:33:13.199    19 Jan 2019 16:36:12.480           179.281
                     135    19 Jan 2019 18:09:43.114    19 Jan 2019 18:12:19.660           156.546
                     136    20 Jan 2019 09:11:05.946    20 Jan 2019 09:12:53.015           107.070
                     137    20 Jan 2019 10:46:34.591    20 Jan 2019 10:49:53.925           199.334
                     138    20 Jan 2019 17:15:11.399    20 Jan 2019 17:19:18.067           246.668
                     139    21 Jan 2019 09:52:11.011    21 Jan 2019 09:56:22.302           251.291
                     140    21 Jan 2019 16:21:17.409    21 Jan 2019 16:25:27.832           250.423
                     141    22 Jan 2019 08:58:22.079    22 Jan 2019 09:02:27.413           245.333
                     142    22 Jan 2019 15:27:46.684    22 Jan 2019 15:31:02.947           196.263
                     143    22 Jan 2019 17:04:41.524    22 Jan 2019 17:06:38.919           117.394
                     144    23 Jan 2019 08:05:23.341    23 Jan 2019 08:07:53.221           149.880
                     145    23 Jan 2019 09:41:24.731    23 Jan 2019 09:44:27.659           182.928
                     146    23 Jan 2019 16:09:54.999    23 Jan 2019 16:13:54.010           239.012
                     147    24 Jan 2019 08:46:54.425    24 Jan 2019 08:51:00.711           246.286
                     148    24 Jan 2019 15:15:56.368    24 Jan 2019 15:20:10.404           254.036
                     149    25 Jan 2019 07:52:59.132    25 Jan 2019 07:57:10.181           251.050
                     150    25 Jan 2019 14:22:21.311    25 Jan 2019 14:25:51.906           210.595
                     151    25 Jan 2019 15:59:58.553    25 Jan 2019 16:00:39.232            40.679
                     152    26 Jan 2019 06:59:47.663    26 Jan 2019 07:02:46.827           179.164
                     153    26 Jan 2019 08:36:16.636    26 Jan 2019 08:39:00.001           163.366
                     154    26 Jan 2019 13:29:27.250    26 Jan 2019 13:30:40.885            73.635
                     155    26 Jan 2019 15:04:39.795    26 Jan 2019 15:08:28.414           228.619
                     156    27 Jan 2019 07:41:38.896    27 Jan 2019 07:45:38.425           239.529
                     157    27 Jan 2019 14:10:36.028    27 Jan 2019 14:14:51.921           255.893
                     158    28 Jan 2019 06:47:37.459    28 Jan 2019 06:51:52.024           254.565
                     159    28 Jan 2019 13:16:56.876    28 Jan 2019 13:20:39.554           222.679
                     160    29 Jan 2019 05:54:15.852    29 Jan 2019 05:57:36.893           201.041
                     161    29 Jan 2019 07:31:10.870    29 Jan 2019 07:33:30.376           139.506
                     162    29 Jan 2019 12:23:48.993    29 Jan 2019 12:25:44.408           115.415
                     163    29 Jan 2019 13:59:26.043    29 Jan 2019 14:03:01.027           214.985
                     164    30 Jan 2019 06:36:24.448    30 Jan 2019 06:40:15.426           230.977
                     165    30 Jan 2019 13:05:16.417    30 Jan 2019 13:09:32.346           255.929
                     166    31 Jan 2019 05:42:16.972    31 Jan 2019 05:46:33.039           256.067
                     167    31 Jan 2019 12:11:33.268    31 Jan 2019 12:15:26.014           232.746
                     168     1 Feb 2019 04:48:46.734     1 Feb 2019 04:52:24.597           217.863
                     169     1 Feb 2019 06:26:08.700     1 Feb 2019 06:27:57.518           108.818
                     170     1 Feb 2019 11:18:16.925     1 Feb 2019 11:20:41.381           144.456
                     171     1 Feb 2019 12:54:14.138     1 Feb 2019 12:57:31.458           197.320
                     172     2 Feb 2019 05:31:11.129     2 Feb 2019 05:34:51.667           220.539
                     173     2 Feb 2019 11:59:57.581     2 Feb 2019 12:04:11.640           254.059
                     174     3 Feb 2019 04:36:57.607     3 Feb 2019 04:41:13.286           255.679
                     175     3 Feb 2019 11:06:10.410     3 Feb 2019 11:10:11.355           240.945
                     176     4 Feb 2019 03:43:19.712     4 Feb 2019 03:47:10.543           230.831
                     177     4 Feb 2019 05:21:14.641     4 Feb 2019 05:22:16.909            62.268
                     178     4 Feb 2019 10:12:47.744     4 Feb 2019 10:15:35.100           167.356
                     179     4 Feb 2019 11:49:04.754     4 Feb 2019 11:51:59.034           174.281
                     180     5 Feb 2019 02:50:58.235     5 Feb 2019 02:52:02.099            63.864
                     181     5 Feb 2019 04:25:59.023     5 Feb 2019 04:29:27.061           208.038
                     182     5 Feb 2019 10:54:39.593     5 Feb 2019 10:58:49.731           250.138
                     183     6 Feb 2019 03:31:39.324     6 Feb 2019 03:35:52.810           253.486
                     184     6 Feb 2019 10:00:48.261     6 Feb 2019 10:04:55.627           247.367
                     185     7 Feb 2019 02:37:54.426     7 Feb 2019 02:41:55.098           240.672
                     186     7 Feb 2019 09:07:20.393     7 Feb 2019 09:10:26.635           186.242
                     187     7 Feb 2019 10:43:59.263     7 Feb 2019 10:46:22.392           143.129
                     188     8 Feb 2019 01:45:05.753     8 Feb 2019 01:47:11.990           126.237
                     189     8 Feb 2019 03:20:48.257     8 Feb 2019 03:24:01.486           193.229
                     190     8 Feb 2019 09:49:22.551     8 Feb 2019 09:53:26.535           243.983
                     191     9 Feb 2019 02:26:22.102     9 Feb 2019 02:30:31.639           249.536
                     192     9 Feb 2019 08:55:26.803     9 Feb 2019 08:59:38.845           252.042
                     193    10 Feb 2019 01:32:30.647    10 Feb 2019 01:36:38.496           247.850
                     194    10 Feb 2019 08:01:54.357    10 Feb 2019 08:05:16.485           202.127
                     195    10 Feb 2019 09:39:01.575    10 Feb 2019 09:40:37.625            96.051
                     196    11 Feb 2019 00:39:26.500    11 Feb 2019 00:42:08.979           162.479
                     197    11 Feb 2019 02:15:39.051    11 Feb 2019 02:18:34.718           175.668
                     198    11 Feb 2019 07:09:21.768    11 Feb 2019 07:09:42.756            20.989
                     199    11 Feb 2019 08:44:06.594    11 Feb 2019 08:48:01.909           235.314
                     200    12 Feb 2019 01:21:05.934    12 Feb 2019 01:25:09.777           243.843
                     201    12 Feb 2019 07:50:06.038    12 Feb 2019 07:54:21.008           254.969
                     202    13 Feb 2019 00:27:08.215    13 Feb 2019 00:31:20.894           252.679
                     203    13 Feb 2019 06:56:29.373    13 Feb 2019 07:00:04.917           215.544
                     204    13 Feb 2019 23:33:52.547    13 Feb 2019 23:37:00.995           188.447
                     205    14 Feb 2019 01:10:31.784    14 Feb 2019 01:13:06.380           154.597
                     206    14 Feb 2019 06:03:28.848    14 Feb 2019 06:05:01.165            92.317
                     207    14 Feb 2019 07:38:51.921    14 Feb 2019 07:42:35.657           223.736
                     208    15 Feb 2019 00:15:50.829    15 Feb 2019 00:19:47.221           236.392
                     209    15 Feb 2019 06:44:45.981    15 Feb 2019 06:49:02.108           256.126
                     210    15 Feb 2019 23:21:47.020    15 Feb 2019 23:26:02.408           255.388
                     211    16 Feb 2019 05:51:05.279    16 Feb 2019 05:54:52.093           226.814
                     212    16 Feb 2019 22:28:21.891    16 Feb 2019 22:31:50.043           208.152
                     213    17 Feb 2019 00:05:27.216    17 Feb 2019 00:07:35.708           128.492
                     214    17 Feb 2019 04:57:53.761    17 Feb 2019 05:00:01.386           127.625
                     215    17 Feb 2019 06:33:38.830    17 Feb 2019 06:37:07.485           208.655
                     216    17 Feb 2019 23:10:36.822    17 Feb 2019 23:14:23.933           227.111
                     217    18 Feb 2019 05:39:26.669    18 Feb 2019 05:43:42.103           255.433
                     218    18 Feb 2019 22:16:26.985    18 Feb 2019 22:20:43.119           256.134
                     219    19 Feb 2019 04:45:41.976    19 Feb 2019 04:49:38.117           236.141
                     220    19 Feb 2019 21:22:53.657    19 Feb 2019 21:26:37.012           223.354
                     221    19 Feb 2019 23:00:27.262    19 Feb 2019 23:02:00.784            93.522
                     222    20 Feb 2019 03:52:23.018    20 Feb 2019 03:54:56.905           153.887
                     223    20 Feb 2019 05:28:27.805    20 Feb 2019 05:31:36.922           189.117
                     224    20 Feb 2019 22:05:23.971    20 Feb 2019 22:08:59.861           215.890
                     225    21 Feb 2019 04:34:08.158    21 Feb 2019 04:38:20.950           252.792
                     226    21 Feb 2019 21:11:08.055    21 Feb 2019 21:15:23.082           255.027
                     227    22 Feb 2019 03:40:19.404    22 Feb 2019 03:44:23.043           243.639
                     228    22 Feb 2019 20:17:27.358    22 Feb 2019 20:21:22.386           235.028
                     229    22 Feb 2019 21:55:43.863    22 Feb 2019 21:56:09.670            25.807
                     230    23 Feb 2019 02:46:54.635    23 Feb 2019 02:49:49.701           175.066
                     231    23 Feb 2019 04:23:19.706    23 Feb 2019 04:26:03.101           163.395
                     232    23 Feb 2019 19:24:52.424    23 Feb 2019 19:26:26.682            94.258
                     233    23 Feb 2019 21:00:12.375    23 Feb 2019 21:03:34.905           202.530
                     234    24 Feb 2019 03:28:50.530    24 Feb 2019 03:32:58.563           248.033
                     235    24 Feb 2019 20:05:50.195    24 Feb 2019 20:10:02.341           252.147
                     236    25 Feb 2019 02:34:57.529    25 Feb 2019 02:39:06.912           249.383
                     237    25 Feb 2019 19:12:02.692    25 Feb 2019 19:16:06.468           243.776
                     238    26 Feb 2019 01:41:27.836    26 Feb 2019 01:44:40.548           192.711
                     239    26 Feb 2019 03:18:16.481    26 Feb 2019 03:20:24.083           127.602
                     240    26 Feb 2019 18:19:07.287    26 Feb 2019 18:21:29.367           142.080
                     241    26 Feb 2019 19:55:02.191    26 Feb 2019 19:58:08.902           186.711
                     242    27 Feb 2019 02:23:33.895    27 Feb 2019 02:27:34.832           240.937
                     243    27 Feb 2019 19:00:33.388    27 Feb 2019 19:04:40.906           247.518
                     244    28 Feb 2019 01:29:36.342    28 Feb 2019 01:33:49.727           253.385
                     245    28 Feb 2019 18:06:39.461    28 Feb 2019 18:10:49.461           250.001
                     246     1 Mar 2019 00:36:02.235     1 Mar 2019 00:39:29.831           207.596
                     247     1 Mar 2019 02:13:25.545     1 Mar 2019 02:14:32.445            66.899
                     248     1 Mar 2019 17:13:30.497     1 Mar 2019 17:16:24.027           173.530
                     249     1 Mar 2019 18:49:53.680     1 Mar 2019 18:52:41.589           167.909
                     250     1 Mar 2019 23:43:13.258     1 Mar 2019 23:44:13.286            60.028
                     251     2 Mar 2019 01:18:18.414     2 Mar 2019 01:22:09.606           231.193
                     252     2 Mar 2019 17:55:17.635     2 Mar 2019 17:59:18.781           241.146
                     253     3 Mar 2019 00:24:15.853     3 Mar 2019 00:28:31.486           255.634
                     254     3 Mar 2019 17:01:17.528     3 Mar 2019 17:05:31.506           253.978
                     255     3 Mar 2019 23:30:37.611     3 Mar 2019 23:34:17.768           220.156
                     256     4 Mar 2019 16:07:57.989     4 Mar 2019 16:11:14.737           196.748
                     257     4 Mar 2019 17:44:47.339     4 Mar 2019 17:47:12.477           145.138
                     258     4 Mar 2019 22:37:32.158     4 Mar 2019 22:39:19.744           107.587
                     259     5 Mar 2019 00:13:04.318     5 Mar 2019 00:16:42.655           218.337
                     260     5 Mar 2019 16:50:02.954     5 Mar 2019 16:53:55.950           232.996
                     261     5 Mar 2019 23:18:56.082     5 Mar 2019 23:23:12.165           256.082
                     262     6 Mar 2019 15:55:56.797     6 Mar 2019 16:00:12.701           255.904
                     263     6 Mar 2019 22:25:13.832     6 Mar 2019 22:29:04.491           230.659
                     264     7 Mar 2019 15:02:28.359     7 Mar 2019 15:06:02.896           214.537
                     265     7 Mar 2019 16:39:44.198     7 Mar 2019 16:41:40.523           116.325
                     266     7 Mar 2019 21:31:59.152     7 Mar 2019 21:34:17.746           138.594
                     267     7 Mar 2019 23:07:51.967     7 Mar 2019 23:11:13.627           201.660
                     268     8 Mar 2019 15:44:49.385     8 Mar 2019 15:48:32.374           222.989
                     269     8 Mar 2019 22:13:37.075     8 Mar 2019 22:17:51.720           254.645
                     270     9 Mar 2019 14:50:37.198     9 Mar 2019 14:54:53.117           255.920
                     271     9 Mar 2019 21:19:50.814     9 Mar 2019 21:23:50.087           239.272
                     272    10 Mar 2019 13:57:00.925    10 Mar 2019 14:00:49.194           228.269
                     273    10 Mar 2019 15:34:47.422    10 Mar 2019 15:36:02.566            75.144
                     274    10 Mar 2019 20:26:29.446    10 Mar 2019 20:29:12.084           162.638
                     275    10 Mar 2019 22:02:41.948    10 Mar 2019 22:05:41.925           179.977
                     276    11 Mar 2019 13:04:52.461    11 Mar 2019 13:05:28.149            35.688
                     277    11 Mar 2019 14:39:37.003    11 Mar 2019 14:43:07.976           210.974
                     278    11 Mar 2019 21:08:18.896    11 Mar 2019 21:12:30.095           251.199
                     279    12 Mar 2019 13:45:18.683    12 Mar 2019 13:49:32.804           254.121
                     280    12 Mar 2019 20:14:28.511    12 Mar 2019 20:18:34.601           246.089
                     281    13 Mar 2019 12:51:35.288    13 Mar 2019 12:55:34.032           238.744
                     282    13 Mar 2019 19:21:01.732    13 Mar 2019 19:24:04.063           182.331
                     283    13 Mar 2019 20:57:35.412    13 Mar 2019 21:00:06.406           150.993
                     284    14 Mar 2019 11:58:51.022    14 Mar 2019 12:00:46.936           115.914
                     285    14 Mar 2019 13:34:25.922    14 Mar 2019 13:37:42.642           196.720
                     286    14 Mar 2019 20:03:01.639    14 Mar 2019 20:07:07.196           245.557
                     287    15 Mar 2019 12:40:01.230    15 Mar 2019 12:44:11.787           250.557
                     288    15 Mar 2019 19:09:06.900    15 Mar 2019 19:13:18.054           251.154
                     289    16 Mar 2019 11:46:11.197    16 Mar 2019 11:50:17.668           246.471
                     290    16 Mar 2019 18:15:35.428    16 Mar 2019 18:18:54.266           198.838
                     291    16 Mar 2019 19:52:35.316    16 Mar 2019 19:54:24.127           108.812
                     292    17 Mar 2019 10:53:10.034    17 Mar 2019 10:55:45.586           155.551
                     293    17 Mar 2019 12:29:16.336    17 Mar 2019 12:32:16.177           179.841
                     294    17 Mar 2019 18:57:45.431    17 Mar 2019 19:01:42.896           237.464
                     295    18 Mar 2019 11:34:44.825    18 Mar 2019 11:38:50.087           245.262
                     296    18 Mar 2019 18:03:45.979    18 Mar 2019 18:08:00.455           254.475
                     297    19 Mar 2019 10:40:48.478    19 Mar 2019 10:45:00.274           251.795
                     298    19 Mar 2019 17:10:10.219    19 Mar 2019 17:13:42.998           212.780
                     299    20 Mar 2019 09:47:35.153    20 Mar 2019 09:50:38.452           183.299
                     300    20 Mar 2019 11:24:08.579    20 Mar 2019 11:26:48.245           159.665
                     301    20 Mar 2019 16:17:13.090    20 Mar 2019 16:18:35.398            82.308
                     302    20 Mar 2019 17:52:30.457    20 Mar 2019 17:56:17.020           226.563
                     303    21 Mar 2019 10:29:29.477    21 Mar 2019 10:33:27.688           238.211
                     304    21 Mar 2019 16:58:25.760    21 Mar 2019 17:02:41.788           256.028
                     305    22 Mar 2019 09:35:27.014    22 Mar 2019 09:39:41.969           254.955
                     306    22 Mar 2019 16:04:45.929    22 Mar 2019 16:08:30.446           224.516
                     307    23 Mar 2019 08:42:03.862    23 Mar 2019 08:45:28.057           204.195
                     308    23 Mar 2019 10:19:03.292    23 Mar 2019 10:21:18.209           134.917
                     309    23 Mar 2019 15:11:36.380    23 Mar 2019 15:13:37.311           120.931
                     310    23 Mar 2019 16:47:16.987    23 Mar 2019 16:50:49.294           212.308
                     311    24 Mar 2019 09:24:15.216    24 Mar 2019 09:28:04.568           229.353
                     312    24 Mar 2019 15:53:06.276    24 Mar 2019 15:57:22.026           255.750
                     313    25 Mar 2019 08:30:06.721    25 Mar 2019 08:34:22.852           256.131
                     314    25 Mar 2019 14:59:22.449    25 Mar 2019 15:03:16.713           234.265
                     315    26 Mar 2019 07:36:35.135    26 Mar 2019 07:40:15.427           220.292
                     316    26 Mar 2019 09:14:01.967    26 Mar 2019 09:15:44.566           102.599
                     317    26 Mar 2019 14:06:04.916    26 Mar 2019 14:08:33.617           148.700
                     318    26 Mar 2019 15:42:05.455    26 Mar 2019 15:45:19.296           193.841
                     319    27 Mar 2019 08:19:02.087    27 Mar 2019 08:22:40.675           218.589
                     320    27 Mar 2019 14:47:47.578    27 Mar 2019 14:52:01.121           253.543
                     321    28 Mar 2019 07:24:47.540    28 Mar 2019 07:29:02.972           255.432
                     322    28 Mar 2019 13:53:59.709    28 Mar 2019 13:58:01.873           242.164
                     323    29 Mar 2019 06:31:08.427    29 Mar 2019 06:35:01.113           232.686
                     324    29 Mar 2019 08:09:10.871    29 Mar 2019 08:10:01.054            50.182
                     325    29 Mar 2019 13:00:36.090    29 Mar 2019 13:03:26.921           170.831
                     326    29 Mar 2019 14:36:56.610    29 Mar 2019 14:39:46.275           169.665
                     327    30 Mar 2019 05:38:40.381    30 Mar 2019 05:39:58.922            78.541
                     328    30 Mar 2019 07:13:50.187    30 Mar 2019 07:17:15.926           205.739
                     329    30 Mar 2019 13:42:29.742    30 Mar 2019 13:46:38.999           249.257
                     330    31 Mar 2019 06:19:29.432    31 Mar 2019 06:23:42.379           252.947
                     331    31 Mar 2019 12:48:37.673    31 Mar 2019 12:52:45.963           248.290
                     332     1 Apr 2019 05:25:43.405     1 Apr 2019 05:29:45.455           242.050
                     333     1 Apr 2019 11:55:08.976     1 Apr 2019 11:58:18.142           189.166
                     334     1 Apr 2019 13:31:52.041     1 Apr 2019 13:34:08.651           136.609
                     335     2 Apr 2019 04:32:51.696     2 Apr 2019 04:35:05.057           133.361
                     336     2 Apr 2019 06:08:39.657     2 Apr 2019 06:11:50.168           190.511
                     337     2 Apr 2019 12:37:12.872     2 Apr 2019 12:41:15.559           242.686
                     338     3 Apr 2019 05:14:12.381     3 Apr 2019 05:18:21.089           248.708
                     339     3 Apr 2019 11:43:16.327     3 Apr 2019 11:47:28.996           252.669
                     340     4 Apr 2019 04:20:19.856     4 Apr 2019 04:24:28.670           248.814
                     341     4 Apr 2019 10:49:43.126     4 Apr 2019 10:53:07.734           204.608
                     342     4 Apr 2019 12:26:56.789     4 Apr 2019 12:28:21.382            84.593
                     343     5 Apr 2019 03:27:13.571     5 Apr 2019 03:30:00.961           167.390
                     344     5 Apr 2019 05:03:30.734     5 Apr 2019 05:06:23.171           172.437
                     345     5 Apr 2019 09:57:00.858     5 Apr 2019 09:57:44.023            43.165
                     346     5 Apr 2019 11:31:57.116     5 Apr 2019 11:35:50.660           233.544
                     347     6 Apr 2019 04:08:56.382     6 Apr 2019 04:12:59.107           242.725
                     348     6 Apr 2019 10:37:55.675     6 Apr 2019 10:42:10.972           255.297
                     349     7 Apr 2019 03:14:57.632     7 Apr 2019 03:19:10.907           253.276
                     350     7 Apr 2019 09:44:18.296     7 Apr 2019 09:47:55.934           217.638
                     351     8 Apr 2019 02:21:40.257     8 Apr 2019 02:24:52.382           192.125
                     352     8 Apr 2019 03:58:23.838     8 Apr 2019 04:00:54.509           150.671
                     353     8 Apr 2019 08:51:15.405     8 Apr 2019 08:52:54.893            99.488
                     354     8 Apr 2019 10:26:42.686     8 Apr 2019 10:30:24.098           221.411
                     355     9 Apr 2019 03:03:41.452     9 Apr 2019 03:07:36.426           234.973
                     356     9 Apr 2019 09:32:35.738     9 Apr 2019 09:36:51.880           256.142
                     357    10 Apr 2019 02:09:36.629    10 Apr 2019 02:13:52.273           255.644
                     358    10 Apr 2019 08:38:54.336    10 Apr 2019 08:42:42.904           228.567
                     359    11 Apr 2019 01:16:10.045    11 Apr 2019 01:19:41.030           210.985
                     360    11 Apr 2019 02:53:19.841    11 Apr 2019 02:55:23.317           123.476
                     361    11 Apr 2019 07:45:41.336    11 Apr 2019 07:47:54.021           132.685
                     362    11 Apr 2019 09:21:29.906    11 Apr 2019 09:24:55.547           205.642
                     363    12 Apr 2019 01:58:27.627    12 Apr 2019 02:02:13.006           225.379
                     364    12 Apr 2019 08:27:16.552    12 Apr 2019 08:31:31.672           255.120
                     365    13 Apr 2019 01:04:16.775    13 Apr 2019 01:08:32.851           256.076
                     366    13 Apr 2019 07:33:31.155    13 Apr 2019 07:37:28.725           237.570
                     367    14 Apr 2019 00:10:42.152    14 Apr 2019 00:14:27.696           225.543
                     368    14 Apr 2019 01:48:21.080    14 Apr 2019 01:49:47.248            86.168
                     369    14 Apr 2019 06:40:11.082    14 Apr 2019 06:42:48.973           157.892
                     370    14 Apr 2019 08:16:19.302    14 Apr 2019 08:19:24.485           185.183
                     371    15 Apr 2019 00:53:14.971    15 Apr 2019 00:56:48.783           213.812
                     372    15 Apr 2019 07:21:58.180    15 Apr 2019 07:26:10.304           252.124
                     373    15 Apr 2019 23:58:58.018    16 Apr 2019 00:03:12.685           254.667
                     374    16 Apr 2019 06:28:08.697    16 Apr 2019 06:32:13.463           244.765
                     375    16 Apr 2019 23:05:16.134    16 Apr 2019 23:09:12.830           236.696
                     376    17 Apr 2019 05:34:43.012    17 Apr 2019 05:37:41.382           178.371
                     377    17 Apr 2019 07:11:11.848    17 Apr 2019 07:13:49.946           158.098
                     378    17 Apr 2019 22:12:36.811    17 Apr 2019 22:14:21.190           104.379
                     379    17 Apr 2019 23:48:03.596    17 Apr 2019 23:51:23.654           200.058
                     380    18 Apr 2019 06:16:40.707    18 Apr 2019 06:20:47.687           246.980
                     381    18 Apr 2019 22:53:40.330    18 Apr 2019 22:57:51.818           251.488
                     382    19 Apr 2019 05:22:46.937    19 Apr 2019 05:26:57.138           250.201
                     383    19 Apr 2019 21:59:51.714    19 Apr 2019 22:03:56.713           244.999
                     384    20 Apr 2019 04:29:16.441    20 Apr 2019 04:32:31.924           195.484
                     385    20 Apr 2019 06:06:09.857    20 Apr 2019 06:08:09.623           119.766
                     386    20 Apr 2019 21:06:53.689    20 Apr 2019 21:09:21.902           148.213
                     387    20 Apr 2019 22:42:53.668    20 Apr 2019 22:45:57.442           183.774
                     388    21 Apr 2019 05:11:24.252    21 Apr 2019 05:15:23.706           239.453
                     389    21 Apr 2019 21:48:23.698    21 Apr 2019 21:52:30.261           246.563
                     390    22 Apr 2019 04:17:25.866    22 Apr 2019 04:21:39.763           253.896
                     391    22 Apr 2019 20:54:28.704    22 Apr 2019 20:58:39.532           250.828
                     392    23 Apr 2019 03:23:51.024    23 Apr 2019 03:27:20.950           209.926
                     393    23 Apr 2019 05:01:24.470    23 Apr 2019 05:02:12.373            47.904
                     394    23 Apr 2019 20:01:17.775    23 Apr 2019 20:04:15.736           177.961
                     395    23 Apr 2019 21:37:45.489    23 Apr 2019 21:40:29.853           164.365
                     396    24 Apr 2019 02:30:58.016    24 Apr 2019 02:32:08.782            70.766
                     397    24 Apr 2019 04:06:08.984    24 Apr 2019 04:09:58.198           229.214
                     398    24 Apr 2019 20:43:08.123    24 Apr 2019 20:47:08.009           239.886
                     399    25 Apr 2019 03:12:05.495    25 Apr 2019 03:16:21.336           255.841
                     400    25 Apr 2019 19:49:06.976    25 Apr 2019 19:53:21.420           254.444
                     401    26 Apr 2019 02:18:26.554    26 Apr 2019 02:22:08.664           222.110
                     402    26 Apr 2019 18:55:45.816    26 Apr 2019 18:59:05.944           200.128
                     403    26 Apr 2019 20:32:39.606    26 Apr 2019 20:35:00.336           140.731
                     404    27 Apr 2019 01:25:19.220    27 Apr 2019 01:27:12.869           113.648
                     405    27 Apr 2019 03:00:55.151    27 Apr 2019 03:04:30.919           215.768
                     406    27 Apr 2019 19:37:53.629    27 Apr 2019 19:41:45.046           231.417
                     407    28 Apr 2019 02:06:45.850    28 Apr 2019 02:11:01.823           255.973
                     408    28 Apr 2019 18:43:46.440    28 Apr 2019 18:48:02.479           256.039
                     409    29 Apr 2019 01:13:02.915    29 Apr 2019 01:16:55.180           232.265
                     410    29 Apr 2019 17:50:16.592    29 Apr 2019 17:53:53.752           217.160
                     411    29 Apr 2019 19:27:37.232    29 Apr 2019 19:29:27.674           110.443
                     412    30 Apr 2019 00:19:46.964    30 Apr 2019 00:22:10.062           143.098
                     413    30 Apr 2019 01:55:43.142    30 Apr 2019 01:59:01.485           198.343
                     414    30 Apr 2019 18:32:40.263    30 Apr 2019 18:36:21.329           221.067
                     415     1 May 2019 01:01:26.979     1 May 2019 01:05:41.183           254.204
                     416     1 May 2019 17:38:27.031     1 May 2019 17:42:42.768           255.737
                     417     2 May 2019 00:07:40.028     2 May 2019 00:11:40.586           240.558
                     418     2 May 2019 16:44:49.488     2 May 2019 16:48:39.781           230.293
                     419     2 May 2019 18:22:42.531     2 May 2019 18:23:47.703            65.172
                     420     2 May 2019 23:14:17.677     2 May 2019 23:17:03.922           166.245
                     421     3 May 2019 00:50:33.603     3 May 2019 00:53:29.247           175.644
                     422     3 May 2019 15:52:30.249     3 May 2019 15:53:29.199            58.950
                     423     3 May 2019 17:27:28.103     3 May 2019 17:30:56.772           208.668
                     424     3 May 2019 23:56:08.952     4 May 2019 00:00:19.349           250.397
                     425     4 May 2019 16:33:08.704     4 May 2019 16:37:22.328           253.624
                     426     4 May 2019 23:02:17.851     4 May 2019 23:06:24.921           247.070
                     427     5 May 2019 15:39:24.134     5 May 2019 15:43:24.398           240.264
                     428     5 May 2019 22:08:50.246     5 May 2019 22:11:55.564           185.318
                     429     5 May 2019 23:45:27.857     5 May 2019 23:47:52.891           145.034
                     430     6 May 2019 14:46:36.387     6 May 2019 14:48:40.471           124.084
                     431     6 May 2019 16:22:17.276     6 May 2019 16:25:31.256           193.980
                     432     6 May 2019 22:50:51.863     6 May 2019 22:54:56.231           244.367
                     433     7 May 2019 15:27:51.438     7 May 2019 15:32:01.201           249.763
                     434     7 May 2019 21:56:56.363     7 May 2019 22:01:08.200           251.837
                     435     8 May 2019 14:34:00.294     8 May 2019 14:38:07.854           247.560
                     436     8 May 2019 21:03:24.158     8 May 2019 21:06:45.501           201.343
                     437     8 May 2019 22:40:29.541     8 May 2019 22:42:08.783            99.242
                     438     9 May 2019 13:40:56.792     9 May 2019 13:43:37.797           161.004
                     439     9 May 2019 15:17:07.993     9 May 2019 15:20:04.563           176.570
                     440     9 May 2019 21:45:35.851     9 May 2019 21:49:31.690           235.838
                     441    10 May 2019 14:22:35.224    10 May 2019 14:26:39.380           244.156
                     442    10 May 2019 20:51:35.567    10 May 2019 20:55:50.423           254.856
                     443    11 May 2019 13:28:37.808    11 May 2019 13:32:50.303           252.495
                     444    11 May 2019 19:57:59.127    11 May 2019 20:01:34.009           214.882
                     445    12 May 2019 12:35:22.655    12 May 2019 12:38:29.993           187.338
                     446    12 May 2019 14:12:00.619    12 May 2019 14:14:36.322           155.703
                     447    12 May 2019 19:04:59.398    12 May 2019 19:06:29.367            89.970
                     448    12 May 2019 20:40:21.112    12 May 2019 20:44:05.536           224.424
                     449    13 May 2019 13:17:20.071    13 May 2019 13:21:16.867           236.796
                     450    13 May 2019 19:46:15.478    13 May 2019 19:50:31.588           256.110
                     451    14 May 2019 12:23:16.562    14 May 2019 12:27:31.863           255.301
                     452    14 May 2019 18:52:34.992    14 May 2019 18:56:21.259           226.267
                     453    15 May 2019 11:29:51.874    15 May 2019 11:33:19.165           207.291
                     454    15 May 2019 13:06:55.886    15 May 2019 13:09:05.810           129.924
                     455    15 May 2019 17:59:23.946    15 May 2019 18:01:29.974           126.028
                     456    15 May 2019 19:35:07.936    15 May 2019 19:38:37.478           209.542
                     457    16 May 2019 12:12:06.010    16 May 2019 12:15:53.626           227.616
                     458    16 May 2019 18:40:56.130    16 May 2019 18:45:11.649           255.520
                     459    17 May 2019 11:17:56.475    17 May 2019 11:22:12.616           256.141
                     460    17 May 2019 17:47:11.649    17 May 2019 17:51:07.347           235.699
                     461    18 May 2019 10:24:23.543    18 May 2019 10:28:06.218           222.675
                     462    18 May 2019 12:01:55.595    18 May 2019 12:03:31.211            95.617
                     463    18 May 2019 16:53:53.031    18 May 2019 16:56:25.692           152.660
                     464    18 May 2019 18:29:56.794    18 May 2019 18:33:07.054           190.260
                     465    19 May 2019 11:06:53.097    19 May 2019 11:10:29.603           216.507
                     466    19 May 2019 17:35:37.578    19 May 2019 17:39:50.556           252.978
                     467    20 May 2019 10:12:37.492    20 May 2019 10:16:52.618           255.127
                     468    20 May 2019 16:41:49.037    20 May 2019 16:45:52.335           243.298
                     469    21 May 2019 09:18:57.156    21 May 2019 09:22:51.662           234.506
                     470    21 May 2019 10:57:09.667    21 May 2019 10:57:42.611            32.944
                     471    21 May 2019 15:48:24.540    21 May 2019 15:51:18.617           174.077
                     472    21 May 2019 17:24:48.520    21 May 2019 17:27:33.430           164.910
                     473    22 May 2019 08:26:23.677    22 May 2019 08:27:54.602            90.924
                     474    22 May 2019 10:01:41.429    22 May 2019 10:05:04.702           203.273
                     475    22 May 2019 16:30:19.904    22 May 2019 16:34:28.235           248.330
                     476    23 May 2019 09:07:19.577    23 May 2019 09:11:31.915           252.339
                     477    23 May 2019 15:36:27.125    23 May 2019 15:40:36.258           249.133
                     478    24 May 2019 08:13:32.415    24 May 2019 08:17:35.802           243.387
                     479    24 May 2019 14:42:57.665    24 May 2019 14:46:09.557           191.892
                     480    24 May 2019 16:19:44.970    24 May 2019 16:21:54.754           129.784
                     481    25 May 2019 07:20:37.841    25 May 2019 07:22:57.965           140.124
                     482    25 May 2019 08:56:31.160    25 May 2019 08:59:38.766           187.607
                     483    25 May 2019 15:25:03.218    25 May 2019 15:29:04.572           241.355
                     484    26 May 2019 08:02:02.714    26 May 2019 08:06:10.518           247.804
                     485    26 May 2019 14:31:05.900    26 May 2019 14:35:19.127           253.227
                     486    27 May 2019 07:08:09.113    27 May 2019 07:12:18.846           249.733
                     487    27 May 2019 13:37:31.998    27 May 2019 13:40:58.917           206.919
                     488    27 May 2019 15:14:52.873    27 May 2019 15:16:04.291            71.418
                     489    28 May 2019 06:15:00.764    28 May 2019 06:17:52.888           172.124
                     490    28 May 2019 07:51:22.539    28 May 2019 07:54:11.537           168.998
                     491    28 May 2019 12:44:44.322    28 May 2019 12:45:40.967            56.645
                     492    28 May 2019 14:19:47.674    28 May 2019 14:23:39.420           231.746
                     493    29 May 2019 06:56:46.900    29 May 2019 07:00:48.428           241.528
                     494    29 May 2019 13:25:45.370    29 May 2019 13:30:00.933           255.562
                     495    30 May 2019 06:02:47.111    30 May 2019 06:07:00.927           253.816
                     496    30 May 2019 12:32:07.319    30 May 2019 12:35:46.913           219.594
                     497    31 May 2019 05:09:28.074    31 May 2019 05:12:43.751           195.677
                     498    31 May 2019 06:46:16.052    31 May 2019 06:48:42.548           146.496
                     499    31 May 2019 11:39:02.401    31 May 2019 11:40:48.249           105.848
                     500    31 May 2019 13:14:33.502    31 May 2019 13:18:12.553           219.051

Global Statistics
-----------------
Min Duration         198    11 Feb 2019 07:09:21.768    11 Feb 2019 07:09:42.756            20.989
Max Duration         356     9 Apr 2019 09:32:35.738     9 Apr 2019 09:36:51.880           256.142
Mean Duration                                                                              199.651
Total Duration                                                                           99825.323
